[{"id": "FRDeSt5dcTv4bEKuaAVgkg", "alias": "osaka-sushi-mundelein-2", "name": "Osaka Sushi", "image_url": "https://s3-media3.fl.yelpcdn.com/bphoto/T93W-KaGXxf_m2R2Cag6Nw/o.jpg", "is_closed": false, "url": "https://www.yelp.com/biz/osaka-sushi-mundelein-2?adjust_creative=C0qWl-nkrhgvVn4vMXVoWw&utm_campaign=yelp_api_v3&utm_medium=api_v3_business_search&utm_source=C0qWl-nkrhgvVn4vMXVoWw", "review_count": 196, "categories": [{"alias": "sushi", "title": "Sushi Bars"}, {"alias": "japanese", "title": "Japanese"}], "rating": 4.0, "coordinates": {"latitude": 42.2417775, "longitude": -87.9776827}, "transactions": ["delivery", "pickup"], "price": "$$", "location": {"address1": "1452 S Butterfield Rd", "address2": "", "address3": "", "city": "Mundelein", "zip_code": "60060", "country": "US", "state": "IL", "display_address": ["1452 S Butterfield Rd", "Mundelein, IL 60060"]}, "phone": "+18475499944", "display_phone": "(847) 549-9944", "distance": 3448.8304246598}, {"id": "W4jrdps3efXU4JvHxPdBIg", "alias": "blufish-sushi-robata-vernon-hills", "name": "Blufish Sushi Robata", "image_url": "https://s3-media2.fl.yelpcdn.com/bphoto/lHK8HAOY_sbp65NNNQO8pw/o.jpg", "is_closed": false, "url": "https://www.yelp.com/biz/blufish-sushi-robata-vernon-hills?adjust_creative=C0qWl-nkrhgvVn4vMXVoWw&utm_campaign=yelp_api_v3&utm_medium=api_v3_business_search&utm_source=C0qWl-nkrhgvVn4vMXVoWw", "review_count": 484, "categories": [{"alias": "japanese", "title": "Japanese"}, {"alias": "sushi", "title": "Sushi Bars"}, {"alias": "seafood", "title": "Seafood"}], "rating": 4.5, "coordinates": {"latitude": 42.23849454099713, "longitude": -87.9478429965949}, "transactions": ["delivery", "pickup"], "price": "$$", "location": {"address1": "700 N Milwaukee Ave", "address2": "Ste 128", "address3": "", "city": "Vernon Hills", "zip_code": "60061", "country": "US", "state": "IL", "display_address": ["700 N Milwaukee Ave", "Ste 128", "Vernon Hills, IL 60061"]}, "phone": "+18475493620", "display_phone": "(847) 549-3620", "distance": 5807.847149637726}, {"id": "9m_qTYOTx1BAMwggpptnrg", "alias": "vans-sushi-cafe-vernon-hills", "name": "Van's Sushi Cafe", "image_url": "https://s3-media3.fl.yelpcdn.com/bphoto/UNNy67bMBzTxqhQhNefY5g/o.jpg", "is_closed": false, "url": "https://www.yelp.com/biz/vans-sushi-cafe-vernon-hills?adjust_creative=C0qWl-nkrhgvVn4vMXVoWw&utm_campaign=yelp_api_v3&utm_medium=api_v3_business_search&utm_source=C0qWl-nkrhgvVn4vMXVoWw", "review_count": 151, "categories": [{"alias": "sushi", "title": "Sushi Bars"}], "rating": 4.5, "coordinates": {"latitude": 42.201184, "longitude": -87.933535}, "transactions": ["delivery", "pickup"], "location": {"address1": "1356 S Milwaukee Ave", "address2": null, "address3": "", "city": "Vernon Hills", "zip_code": "60061", "country": "US", "state": "IL", "display_address": ["1356 S Milwaukee Ave", "Vernon Hills, IL 60061"]}, "phone": "+18473836244", "display_phone": "(847) 383-6244", "distance": 9229.659661518983}, {"id": "1a9ssCh8okKaMpySZ4mIvg", "alias": "kumas-sushi-bowl-vernon-hills", "name": "Kuma's Sushi Bowl", "image_url": "https://s3-media4.fl.yelpcdn.com/bphoto/-tFifL28ZXsoClWzd8QYtw/o.jpg", "is_closed": false, "url": "https://www.yelp.com/biz/kumas-sushi-bowl-vernon-hills?adjust_creative=C0qWl-nkrhgvVn4vMXVoWw&utm_campaign=yelp_api_v3&utm_medium=api_v3_business_search&utm_source=C0qWl-nkrhgvVn4vMXVoWw", "review_count": 240, "categories": [{"alias": "sushi", "title": "Sushi Bars"}], "rating": 5.0, "coordinates": {"latitude": 42.2399892351077, "longitude": -87.9416033261764}, "transactions": ["delivery", "pickup"], "price": "$$", "location": {"address1": "701 N Milwaukee Ave", "address2": "Ste 316", "address3": "", "city": "Vernon Hills", "zip_code": "60061", "country": "US", "state": "IL", "display_address": ["701 N Milwaukee Ave", "Ste 316", "Vernon Hills, IL 60061"]}, "phone": "+12242067953", "display_phone": "(224) 206-7953", "distance": 6214.176135516486}, {"id": "eRn25AfvT41vP2P_8K_4Eg", "alias": "sushi-kushi-4-u-lake-zurich", "name": "Sushi Kushi 4 U", "image_url": "https://s3-media2.fl.yelpcdn.com/bphoto/vK6ksbXxwyRlS_13lsTrKg/o.jpg", "is_closed": false, "url": "https://www.yelp.com/biz/sushi-kushi-4-u-lake-zurich?adjust_creative=C0qWl-nkrhgvVn4vMXVoWw&utm_campaign=yelp_api_v3&utm_medium=api_v3_business_search&utm_source=C0qWl-nkrhgvVn4vMXVoWw", "review_count": 206, "categories": [{"alias": "japanese", "title": "Japanese"}, {"alias": "sushi", "title": "Sushi Bars"}], "rating": 4.5, "coordinates": {"latitude": 42.1962893, "longitude": -88.1109261}, "transactions": ["delivery"], "price": "$$", "location": {"address1": "127 S Rand Rd", "address2": null, "address3": "", "city": "Lake Zurich", "zip_code": "60047", "country": "US", "state": "IL", "display_address": ["127 S Rand Rd", "Lake Zurich, IL 60047"]}, "phone": "+18475501250", "display_phone": "(847) 550-1250", "distance": 10904.54406712525}, {"id": "ZBdfgSLBmE8QZl7ajb3ECw", "alias": "oishi-sushi-libertyville", "name": "Oishi Sushi", "image_url": "https://s3-media2.fl.yelpcdn.com/bphoto/LJTr8V4n3raNNzGCwrhhEA/o.jpg", "is_closed": false, "url": "https://www.yelp.com/biz/oishi-sushi-libertyville?adjust_creative=C0qWl-nkrhgvVn4vMXVoWw&utm_campaign=yelp_api_v3&utm_medium=api_v3_business_search&utm_source=C0qWl-nkrhgvVn4vMXVoWw", "review_count": 102, "categories": [{"alias": "japanese", "title": "Japanese"}, {"alias": "sushi", "title": "Sushi Bars"}], "rating": 3.5, "coordinates": {"latitude": 42.284376, "longitude": -87.953831}, "transactions": ["delivery"], "price": "$$", "location": {"address1": "163 N Milwaukee Ave", "address2": "", "address3": null, "city": "Libertyville", "zip_code": "60048", "country": "US", "state": "IL", "display_address": ["163 N Milwaukee Ave", "Libertyville, IL 60048"]}, "phone": "+18472817818", "display_phone": "(847) 281-7818", "distance": 5460.281215906143}, {"id": "Sl9cgZV8CKRxNn4bSu3iQQ", "alias": "sushi-kushi-san3-vernon-hills", "name": "Sushi Kushi San3", "image_url": "https://s3-media1.fl.yelpcdn.com/bphoto/DLHC1TW4tXvqtrO4Pnn2xQ/o.jpg", "is_closed": false, "url": "https://www.yelp.com/biz/sushi-kushi-san3-vernon-hills?adjust_creative=C0qWl-nkrhgvVn4vMXVoWw&utm_campaign=yelp_api_v3&utm_medium=api_v3_business_search&utm_source=C0qWl-nkrhgvVn4vMXVoWw", "review_count": 273, "categories": [{"alias": "sushi", "title": "Sushi Bars"}, {"alias": "ramen", "title": "Ramen"}, {"alias": "seafood", "title": "Seafood"}], "rating": 3.5, "coordinates": {"latitude": 42.240036, "longitude": -87.972296}, "transactions": ["delivery", "pickup"], "price": "$$", "location": {"address1": "281 W Townline Rd", "address2": "Unit 150", "address3": "", "city": "Vernon Hills", "zip_code": "60061", "country": "US", "state": "IL", "display_address": ["281 W Townline Rd", "Unit 150", "Vernon Hills, IL 60061"]}, "phone": "+18473623330", "display_phone": "(847) 362-3330", "distance": 3971.7261074672097}, {"id": "z30v6Tr-kAfqh14gWz_a9A", "alias": "shakou-libertyville-libertyville", "name": "Shakou-Libertyville", "image_url": "https://s3-media3.fl.yelpcdn.com/bphoto/MA3fb3GKOtBa2pSdSs6ssw/o.jpg", "is_closed": false, "url": "https://www.yelp.com/biz/shakou-libertyville-libertyville?adjust_creative=C0qWl-nkrhgvVn4vMXVoWw&utm_campaign=yelp_api_v3&utm_medium=api_v3_business_search&utm_source=C0qWl-nkrhgvVn4vMXVoWw", "review_count": 457, "categories": [{"alias": "sushi", "title": "Sushi Bars"}, {"alias": "asianfusion", "title": "Asian Fusion"}, {"alias": "gluten_free", "title": "Gluten-Free"}], "rating": 3.5, "coordinates": {"latitude": 42.2890677, "longitude": -87.9547897}, "transactions": ["delivery", "pickup"], "price": "$$", "location": {"address1": "625 N Milwaukee Ave", "address2": "", "address3": "", "city": "Libertyville", "zip_code": "60048", "country": "US", "state": "IL", "display_address": ["625 N Milwaukee Ave", "Libertyville, IL 60048"]}, "phone": "+12244336675", "display_phone": "(224) 433-6675", "distance": 5665.7803297384135}, {"id": "rFSnzCAKqajy8xLsMYdmFQ", "alias": "starfish-sushi-lincolnshire-2", "name": "Starfish Sushi", "image_url": "https://s3-media2.fl.yelpcdn.com/bphoto/oRj_DDxvfNg2oltee_1ilA/o.jpg", "is_closed": false, "url": "https://www.yelp.com/biz/starfish-sushi-lincolnshire-2?adjust_creative=C0qWl-nkrhgvVn4vMXVoWw&utm_campaign=yelp_api_v3&utm_medium=api_v3_business_search&utm_source=C0qWl-nkrhgvVn4vMXVoWw", "review_count": 315, "categories": [{"alias": "japanese", "title": "Japanese"}, {"alias": "sushi", "title": "Sushi Bars"}], "rating": 4.0, "coordinates": {"latitude": 42.2036299, "longitude": -87.93211}, "transactions": ["delivery", "pickup"], "price": "$$", "location": {"address1": "185 Milwaukee Ave", "address2": "Ste 150", "address3": "", "city": "Lincolnshire", "zip_code": "60069", "country": "US", "state": "IL", "display_address": ["185 Milwaukee Ave", "Ste 150", "Lincolnshire, IL 60069"]}, "phone": "+18473835511", "display_phone": "(847) 383-5511", "distance": 9123.340886767008}, {"id": "A2OxFi_OdvgpTE1zCxVucw", "alias": "hanakawa-libertyville-2", "name": "Hanakawa", "image_url": "https://s3-media1.fl.yelpcdn.com/bphoto/PL2_AQDrDV8DsaM5jj9CuA/o.jpg", "is_closed": false, "url": "https://www.yelp.com/biz/hanakawa-libertyville-2?adjust_creative=C0qWl-nkrhgvVn4vMXVoWw&utm_campaign=yelp_api_v3&utm_medium=api_v3_business_search&utm_source=C0qWl-nkrhgvVn4vMXVoWw", "review_count": 206, "categories": [{"alias": "japanese", "title": "Japanese"}, {"alias": "sushi", "title": "Sushi Bars"}, {"alias": "steak", "title": "Steakhouses"}], "rating": 4.0, "coordinates": {"latitude": 42.27929, "longitude": -87.95318}, "transactions": ["delivery"], "price": "$$", "location": {"address1": "411 S Milwaukee Ave", "address2": "", "address3": "", "city": "Libertyville", "zip_code": "60048", "country": "US", "state": "IL", "display_address": ["411 S Milwaukee Ave", "Libertyville, IL 60048"]}, "phone": "+18472470091", "display_phone": "(847) 247-0091", "distance": 5273.106464256689}, {"id": "1jxnytN20EV108D2NjXjYw", "alias": "sushi-yoru-lake-zurich", "name": "Sushi Yoru", "image_url": "https://s3-media4.fl.yelpcdn.com/bphoto/0PwibWmw8bty5oCmCRLnJA/o.jpg", "is_closed": false, "url": "https://www.yelp.com/biz/sushi-yoru-lake-zurich?adjust_creative=C0qWl-nkrhgvVn4vMXVoWw&utm_campaign=yelp_api_v3&utm_medium=api_v3_business_search&utm_source=C0qWl-nkrhgvVn4vMXVoWw", "review_count": 100, "categories": [{"alias": "sushi", "title": "Sushi Bars"}, {"alias": "japanese", "title": "Japanese"}], "rating": 4.5, "coordinates": {"latitude": 42.187928, "longitude": -88.104594}, "transactions": ["delivery"], "location": {"address1": "523 Ela Rd", "address2": "", "address3": null, "city": "Lake Zurich", "zip_code": "60047", "country": "US", "state": "IL", "display_address": ["523 Ela Rd", "Lake Zurich, IL 60047"]}, "phone": "+12246775353", "display_phone": "(224) 677-5353", "distance": 11114.483208421789}, {"id": "I-OJsNtlnvwtK81s1AdEsA", "alias": "tsukasa-of-tokyo-vernon-hills", "name": "Tsukasa of Tokyo", "image_url": "https://s3-media3.fl.yelpcdn.com/bphoto/OQV8anUjof5q6DPFzV_DAQ/o.jpg", "is_closed": false, "url": "https://www.yelp.com/biz/tsukasa-of-tokyo-vernon-hills?adjust_creative=C0qWl-nkrhgvVn4vMXVoWw&utm_campaign=yelp_api_v3&utm_medium=api_v3_business_search&utm_source=C0qWl-nkrhgvVn4vMXVoWw", "review_count": 572, "categories": [{"alias": "japanese", "title": "Japanese"}], "rating": 3.5, "coordinates": {"latitude": 42.236277, "longitude": -87.941708}, "transactions": ["delivery", "pickup"], "price": "$$", "location": {"address1": "561 N Milwaukee Ave", "address2": "", "address3": "", "city": "Vernon Hills", "zip_code": "60061", "country": "US", "state": "IL", "display_address": ["561 N Milwaukee Ave", "Vernon Hills, IL 60061"]}, "phone": "+18478168770", "display_phone": "(847) 816-8770", "distance": 6368.576872999927}, {"id": "vIjptfA0BGNmp-GmdO_esw", "alias": "tokyo-bowl-vernon-hills", "name": "Tokyo Bowl", "image_url": "https://s3-media1.fl.yelpcdn.com/bphoto/as2tGSUxWBvLLOakVBV_sA/o.jpg", "is_closed": false, "url": "https://www.yelp.com/biz/tokyo-bowl-vernon-hills?adjust_creative=C0qWl-nkrhgvVn4vMXVoWw&utm_campaign=yelp_api_v3&utm_medium=api_v3_business_search&utm_source=C0qWl-nkrhgvVn4vMXVoWw", "review_count": 104, "categories": [{"alias": "japanese", "title": "Japanese"}], "rating": 4.0, "coordinates": {"latitude": 42.2405680996437, "longitude": -87.9616928100586}, "transactions": ["delivery"], "price": "$$", "location": {"address1": "121 E Townline Rd", "address2": "", "address3": "", "city": "Vernon Hills", "zip_code": "60061", "country": "US", "state": "IL", "display_address": ["121 E Townline Rd", "Vernon Hills, IL 60061"]}, "phone": "+18475496310", "display_phone": "(847) 549-6310", "distance": 4684.856864829553}, {"id": "M5FsGbDsZ59WJ8J4MV0n7w", "alias": "vin-90-sushi-grill-and-bar-buffalo-grove-3", "name": "Vin 90 Sushi, Grill and Bar", "image_url": "https://s3-media1.fl.yelpcdn.com/bphoto/PzNB08qK0FjKF2F2_v3ujA/o.jpg", "is_closed": false, "url": "https://www.yelp.com/biz/vin-90-sushi-grill-and-bar-buffalo-grove-3?adjust_creative=C0qWl-nkrhgvVn4vMXVoWw&utm_campaign=yelp_api_v3&utm_medium=api_v3_business_search&utm_source=C0qWl-nkrhgvVn4vMXVoWw", "review_count": 16, "categories": [{"alias": "sportsbars", "title": "Sports Bars"}, {"alias": "sushi", "title": "Sushi Bars"}, {"alias": "steak", "title": "Steakhouses"}], "rating": 4.5, "coordinates": {"latitude": 42.19598220663925, "longitude": -87.96719109758419}, "transactions": ["delivery", "pickup"], "location": {"address1": "401 Half Day Rd", "address2": null, "address3": "", "city": "Buffalo Grove", "zip_code": "60089", "country": "US", "state": "IL", "display_address": ["401 Half Day Rd", "Buffalo Grove, IL 60089"]}, "phone": "+12246760692", "display_phone": "(224) 676-0692", "distance": 8063.209201139692}, {"id": "amYMMHe7HItgWBoJMsz8aQ", "alias": "sushi-thai-restaurant-vernon-hills", "name": "Sushi Thai Restaurant", "image_url": "https://s3-media4.fl.yelpcdn.com/bphoto/TvdKq6xKIDZ-olTI6l-BdA/o.jpg", "is_closed": false, "url": "https://www.yelp.com/biz/sushi-thai-restaurant-vernon-hills?adjust_creative=C0qWl-nkrhgvVn4vMXVoWw&utm_campaign=yelp_api_v3&utm_medium=api_v3_business_search&utm_source=C0qWl-nkrhgvVn4vMXVoWw", "review_count": 222, "categories": [{"alias": "japanese", "title": "Japanese"}, {"alias": "thai", "title": "Thai"}, {"alias": "sushi", "title": "Sushi Bars"}], "rating": 3.5, "coordinates": {"latitude": 42.2400118318507, "longitude": -87.953833937645}, "transactions": ["delivery", "pickup"], "price": "$$", "location": {"address1": "445 E Townline Rd", "address2": "", "address3": "", "city": "Vernon Hills", "zip_code": "60061", "country": "US", "state": "IL", "display_address": ["445 E Townline Rd", "Vernon Hills, IL 60061"]}, "phone": "+18479682222", "display_phone": "(847) 968-2222", "distance": 5289.826313972036}, {"id": "rWqDgFC0BoKF8Pq1xKp9gw", "alias": "sushi-thai-libertyville", "name": "Sushi Thai", "image_url": "https://s3-media2.fl.yelpcdn.com/bphoto/SngccXdoPjMrBCzCdq4bfg/o.jpg", "is_closed": false, "url": "https://www.yelp.com/biz/sushi-thai-libertyville?adjust_creative=C0qWl-nkrhgvVn4vMXVoWw&utm_campaign=yelp_api_v3&utm_medium=api_v3_business_search&utm_source=C0qWl-nkrhgvVn4vMXVoWw", "review_count": 260, "categories": [{"alias": "sushi", "title": "Sushi Bars"}, {"alias": "thai", "title": "Thai"}, {"alias": "asianfusion", "title": "Asian Fusion"}], "rating": 3.5, "coordinates": {"latitude": 42.3046462, "longitude": -87.958912}, "transactions": ["delivery", "pickup"], "price": "$$", "location": {"address1": "1742 N Milwaukee Ave", "address2": "", "address3": "", "city": "Libertyville", "zip_code": "60048", "country": "US", "state": "IL", "display_address": ["1742 N Milwaukee Ave", "Libertyville, IL 60048"]}, "phone": "+18478164557", "display_phone": "(847) 816-4557", "distance": 6566.498807371016}, {"id": "wCq-x5sM9xcgWIB6y0F7qg", "alias": "west-side-ramen-libertyville", "name": "West Side Ramen", "image_url": "https://s3-media2.fl.yelpcdn.com/bphoto/gR7Vaz4cfxSitpJpU6llMw/o.jpg", "is_closed": false, "url": "https://www.yelp.com/biz/west-side-ramen-libertyville?adjust_creative=C0qWl-nkrhgvVn4vMXVoWw&utm_campaign=yelp_api_v3&utm_medium=api_v3_business_search&utm_source=C0qWl-nkrhgvVn4vMXVoWw", "review_count": 9, "categories": [{"alias": "asianfusion", "title": "Asian Fusion"}, {"alias": "ramen", "title": "Ramen"}, {"alias": "sushi", "title": "Sushi Bars"}], "rating": 4.0, "coordinates": {"latitude": 42.28893, "longitude": -87.95437}, "transactions": ["delivery", "pickup"], "location": {"address1": "602 N Milwaukee Ave", "address2": null, "address3": "", "city": "Libertyville", "zip_code": "60048", "country": "US", "state": "IL", "display_address": ["602 N Milwaukee Ave", "Libertyville, IL 60048"]}, "phone": "+12244336290", "display_phone": "(224) 433-6290", "distance": 5688.072485328652}, {"id": "7B4C4XhOo1aeIwmf8gpO2g", "alias": "dragon-star-mundelein", "name": "Dragon Star", "image_url": "https://s3-media1.fl.yelpcdn.com/bphoto/XWsJfXwHXxyB2yeZn00FWg/o.jpg", "is_closed": false, "url": "https://www.yelp.com/biz/dragon-star-mundelein?adjust_creative=C0qWl-nkrhgvVn4vMXVoWw&utm_campaign=yelp_api_v3&utm_medium=api_v3_business_search&utm_source=C0qWl-nkrhgvVn4vMXVoWw", "review_count": 115, "categories": [{"alias": "chinese", "title": "Chinese"}], "rating": 4.0, "coordinates": {"latitude": 42.2715187072754, "longitude": -87.9941558837891}, "transactions": ["delivery", "pickup"], "price": "$", "location": {"address1": "662 E Hawley St", "address2": "", "address3": null, "city": "Mundelein", "zip_code": "60060", "country": "US", "state": "IL", "display_address": ["662 E Hawley St", "Mundelein, IL 60060"]}, "phone": "+18478378868", "display_phone": "(847) 837-8868", "distance": 1878.078750541008}, {"id": "VvYtvrRnKJ8UUvJbRHYV5Q", "alias": "ramen-house-shinchan-vernon-hills", "name": "Ramen House Shinchan", "image_url": "https://s3-media2.fl.yelpcdn.com/bphoto/2KpWny2tY42Lv10NpEgrJQ/o.jpg", "is_closed": false, "url": "https://www.yelp.com/biz/ramen-house-shinchan-vernon-hills?adjust_creative=C0qWl-nkrhgvVn4vMXVoWw&utm_campaign=yelp_api_v3&utm_medium=api_v3_business_search&utm_source=C0qWl-nkrhgvVn4vMXVoWw", "review_count": 124, "categories": [{"alias": "ramen", "title": "Ramen"}], "rating": 4.0, "coordinates": {"latitude": 42.238635, "longitude": -87.941136}, "transactions": ["delivery", "pickup"], "price": "$$", "location": {"address1": "701 N Milwaukee Ave", "address2": "", "address3": null, "city": "Vernon Hills", "zip_code": "60061", "country": "US", "state": "IL", "display_address": ["701 N Milwaukee Ave", "Vernon Hills, IL 60061"]}, "phone": "+18479842105", "display_phone": "(847) 984-2105", "distance": 6306.60895373998}, {"id": "oIgotSyvc7eERkrPAq10fw", "alias": "korean-bbq-on-the-lake-lake-zurich-2", "name": "Korean BBQ on The Lake", "image_url": "https://s3-media1.fl.yelpcdn.com/bphoto/3ScHGW0OyW2zKsXQRSHTkg/o.jpg", "is_closed": false, "url": "https://www.yelp.com/biz/korean-bbq-on-the-lake-lake-zurich-2?adjust_creative=C0qWl-nkrhgvVn4vMXVoWw&utm_campaign=yelp_api_v3&utm_medium=api_v3_business_search&utm_source=C0qWl-nkrhgvVn4vMXVoWw", "review_count": 75, "categories": [{"alias": "korean", "title": "Korean"}, {"alias": "asianfusion", "title": "Asian Fusion"}, {"alias": "bbq", "title": "Barbeque"}], "rating": 4.5, "coordinates": {"latitude": 42.195426201753016, "longitude": -88.09558527858698}, "transactions": [], "location": {"address1": "133 W Main St", "address2": null, "address3": "", "city": "Lake Zurich", "zip_code": "60047", "country": "US", "state": "IL", "display_address": ["133 W Main St", "Lake Zurich, IL 60047"]}, "phone": "+18475504283", "display_phone": "(847) 550-4283", "distance": 9998.80267709154}, {"id": "qzbw4_KiNNbg5KDe9F95Lg", "alias": "thai-noodles-cafe-libertyville", "name": "Thai Noodles Cafe", "image_url": "https://s3-media3.fl.yelpcdn.com/bphoto/ACgIKMwGpEhZa_4F2PoCFQ/o.jpg", "is_closed": false, "url": "https://www.yelp.com/biz/thai-noodles-cafe-libertyville?adjust_creative=C0qWl-nkrhgvVn4vMXVoWw&utm_campaign=yelp_api_v3&utm_medium=api_v3_business_search&utm_source=C0qWl-nkrhgvVn4vMXVoWw", "review_count": 347, "categories": [{"alias": "thai", "title": "Thai"}, {"alias": "noodles", "title": "Noodles"}, {"alias": "asianfusion", "title": "Asian Fusion"}], "rating": 4.0, "coordinates": {"latitude": 42.2802668, "longitude": -87.9525781}, "transactions": ["delivery", "pickup"], "price": "$$", "location": {"address1": "318 S Milwaukee Ave", "address2": "", "address3": "", "city": "Libertyville", "zip_code": "60048", "country": "US", "state": "IL", "display_address": ["318 S Milwaukee Ave", "Libertyville, IL 60048"]}, "phone": "+18473623494", "display_phone": "(847) 362-3494", "distance": 5345.655956515974}, {"id": "cXP3L4d5ePibw7ff3YgBkg", "alias": "empire-buffet-sushi-and-hibachi-mundelein", "name": "Empire Buffet Sushi & Hibachi", "image_url": "https://s3-media1.fl.yelpcdn.com/bphoto/JOXYEnSGl0Dcljfw5S5lIw/o.jpg", "is_closed": false, "url": "https://www.yelp.com/biz/empire-buffet-sushi-and-hibachi-mundelein?adjust_creative=C0qWl-nkrhgvVn4vMXVoWw&utm_campaign=yelp_api_v3&utm_medium=api_v3_business_search&utm_source=C0qWl-nkrhgvVn4vMXVoWw", "review_count": 103, "categories": [{"alias": "chinese", "title": "Chinese"}, {"alias": "buffets", "title": "Buffets"}, {"alias": "sushi", "title": "Sushi Bars"}], "rating": 2.5, "coordinates": {"latitude": 42.2399431, "longitude": -87.9963518}, "transactions": ["delivery"], "price": "$$", "location": {"address1": "405 Townline Rd", "address2": "", "address3": "", "city": "Mundelein", "zip_code": "60060", "country": "US", "state": "IL", "display_address": ["405 Townline Rd", "Mundelein, IL 60060"]}, "phone": "+18479707883", "display_phone": "(847) 970-7883", "distance": 2619.2482250390035}, {"id": "ovZv5emC5NiYJTi8_KmyHg", "alias": "kobe-restaurant-lake-zurich", "name": "Kobe Restaurant", "image_url": "https://s3-media1.fl.yelpcdn.com/bphoto/TIlUHzw092RBwvvYK1wSTQ/o.jpg", "is_closed": false, "url": "https://www.yelp.com/biz/kobe-restaurant-lake-zurich?adjust_creative=C0qWl-nkrhgvVn4vMXVoWw&utm_campaign=yelp_api_v3&utm_medium=api_v3_business_search&utm_source=C0qWl-nkrhgvVn4vMXVoWw", "review_count": 98, "categories": [{"alias": "teppanyaki", "title": "Teppanyaki"}, {"alias": "sushi", "title": "Sushi Bars"}, {"alias": "ramen", "title": "Ramen"}], "rating": 2.5, "coordinates": {"latitude": 42.189044, "longitude": -88.109618}, "transactions": ["delivery"], "price": "$$", "location": {"address1": "783 W Main St", "address2": "", "address3": "", "city": "Lake Zurich", "zip_code": "60047", "country": "US", "state": "IL", "display_address": ["783 W Main St", "Lake Zurich, IL 60047"]}, "phone": "+18475500888", "display_phone": "(847) 550-0888", "distance": 11315.217195168263}, {"id": "EWSt98mhUIbzO-zwPOvM1g", "alias": "bubble-tea-lab-libertyville", "name": "Bubble Tea Lab", "image_url": "https://s3-media2.fl.yelpcdn.com/bphoto/KhG3gk2juFVGyOVpELn0ew/o.jpg", "is_closed": false, "url": "https://www.yelp.com/biz/bubble-tea-lab-libertyville?adjust_creative=C0qWl-nkrhgvVn4vMXVoWw&utm_campaign=yelp_api_v3&utm_medium=api_v3_business_search&utm_source=C0qWl-nkrhgvVn4vMXVoWw", "review_count": 67, "categories": [{"alias": "bubbletea", "title": "Bubble Tea"}, {"alias": "coffee", "title": "Coffee & Tea"}], "rating": 3.5, "coordinates": {"latitude": 42.304091, "longitude": -87.959292}, "transactions": ["delivery"], "price": "$$", "location": {"address1": "1757 N Wilwaukee", "address2": "Unit 2", "address3": "", "city": "Libertyville", "zip_code": "60048", "country": "US", "state": "IL", "display_address": ["1757 N Wilwaukee", "Unit 2", "Libertyville, IL 60048"]}, "phone": "+18479842843", "display_phone": "(847) 984-2843", "distance": 6491.931412897347}, {"id": "KNZxyeikTxfwEP-8fycrsA", "alias": "d-and-j-bistro-lake-zurich", "name": "D&J Bistro", "image_url": "https://s3-media1.fl.yelpcdn.com/bphoto/jvHueJuA_8JcUKcAm8bqkg/o.jpg", "is_closed": false, "url": "https://www.yelp.com/biz/d-and-j-bistro-lake-zurich?adjust_creative=C0qWl-nkrhgvVn4vMXVoWw&utm_campaign=yelp_api_v3&utm_medium=api_v3_business_search&utm_source=C0qWl-nkrhgvVn4vMXVoWw", "review_count": 275, "categories": [{"alias": "french", "title": "French"}, {"alias": "bars", "title": "Bars"}], "rating": 4.0, "coordinates": {"latitude": 42.189182, "longitude": -88.10447}, "transactions": ["delivery"], "price": "$$$", "location": {"address1": "466 S Rand Rd", "address2": "", "address3": "", "city": "Lake Zurich", "zip_code": "60047", "country": "US", "state": "IL", "display_address": ["466 S Rand Rd", "Lake Zurich, IL 60047"]}, "phone": "+18474388001", "display_phone": "(847) 438-8001", "distance": 11006.488218013636}, {"id": "9e3qfy_bul4ZREqeKeBp5g", "alias": "sunset-foods-libertyville-2", "name": "Sunset Foods", "image_url": "https://s3-media4.fl.yelpcdn.com/bphoto/6-R3yWjHxx6kXYPwb1momQ/o.jpg", "is_closed": false, "url": "https://www.yelp.com/biz/sunset-foods-libertyville-2?adjust_creative=C0qWl-nkrhgvVn4vMXVoWw&utm_campaign=yelp_api_v3&utm_medium=api_v3_business_search&utm_source=C0qWl-nkrhgvVn4vMXVoWw", "review_count": 56, "categories": [{"alias": "grocery", "title": "Grocery"}], "rating": 3.5, "coordinates": {"latitude": 42.3043975873627, "longitude": -87.9823371394287}, "transactions": ["pickup"], "price": "$$$", "location": {"address1": "1451 Peterson Rd", "address2": "", "address3": "", "city": "Libertyville", "zip_code": "60048", "country": "US", "state": "IL", "display_address": ["1451 Peterson Rd", "Libertyville, IL 60048"]}, "phone": "+18475739570", "display_phone": "(847) 573-9570", "distance": 5447.559552121752}, {"id": "BE4vdX9Tjr7h88aFDov6qw", "alias": "eddie-merlots-lincolnshire-lincolnshire-3", "name": "Eddie Merlot's Lincolnshire", "image_url": "https://s3-media1.fl.yelpcdn.com/bphoto/s7GYtwsPVC2kNOvSOBGmUQ/o.jpg", "is_closed": false, "url": "https://www.yelp.com/biz/eddie-merlots-lincolnshire-lincolnshire-3?adjust_creative=C0qWl-nkrhgvVn4vMXVoWw&utm_campaign=yelp_api_v3&utm_medium=api_v3_business_search&utm_source=C0qWl-nkrhgvVn4vMXVoWw", "review_count": 259, "categories": [{"alias": "steak", "title": "Steakhouses"}, {"alias": "seafood", "title": "Seafood"}], "rating": 3.5, "coordinates": {"latitude": 42.20371345, "longitude": -87.93193029}, "transactions": ["delivery", "pickup"], "price": "$$$", "location": {"address1": "185 N Milwaukee Ave", "address2": "", "address3": "", "city": "Lincolnshire", "zip_code": "60069", "country": "US", "state": "IL", "display_address": ["185 N Milwaukee Ave", "Lincolnshire, IL 60069"]}, "phone": "+18472762000", "display_phone": "(847) 276-2000", "distance": 9119.942234960434}, {"id": "BMyK4sreXs6ER5k1WAosBQ", "alias": "zocalo-mexican-bar-and-grill-vernon-hills", "name": "Zocalo Mexican Bar and Grill", "image_url": "https://s3-media2.fl.yelpcdn.com/bphoto/tjaKIzax_jF9OBMNliCtRw/o.jpg", "is_closed": false, "url": "https://www.yelp.com/biz/zocalo-mexican-bar-and-grill-vernon-hills?adjust_creative=C0qWl-nkrhgvVn4vMXVoWw&utm_campaign=yelp_api_v3&utm_medium=api_v3_business_search&utm_source=C0qWl-nkrhgvVn4vMXVoWw", "review_count": 228, "categories": [{"alias": "mexican", "title": "Mexican"}, {"alias": "bars", "title": "Bars"}], "rating": 4.0, "coordinates": {"latitude": 42.2300346, "longitude": -87.9769051}, "transactions": ["delivery", "pickup"], "price": "$$", "location": {"address1": "203 Butterfield Rd", "address2": "", "address3": "", "city": "Vernon Hills", "zip_code": "60061", "country": "US", "state": "IL", "display_address": ["203 Butterfield Rd", "Vernon Hills, IL 60061"]}, "phone": "+12245135477", "display_phone": "(224) 513-5477", "distance": 4474.674842873172}, {"id": "ul0L73ee2uXj3w11bdvW5w", "alias": "tasty-thai-restaurant-vernon-hills", "name": "Tasty Thai Restaurant", "image_url": "https://s3-media2.fl.yelpcdn.com/bphoto/5qThz80d5jXDGxsEuFwYcw/o.jpg", "is_closed": false, "url": "https://www.yelp.com/biz/tasty-thai-restaurant-vernon-hills?adjust_creative=C0qWl-nkrhgvVn4vMXVoWw&utm_campaign=yelp_api_v3&utm_medium=api_v3_business_search&utm_source=C0qWl-nkrhgvVn4vMXVoWw", "review_count": 126, "categories": [{"alias": "thai", "title": "Thai"}], "rating": 3.0, "coordinates": {"latitude": 42.24172836043461, "longitude": -87.95760749406776}, "transactions": ["delivery", "pickup"], "price": "$", "location": {"address1": "276 Hawthorne Village Commons", "address2": "", "address3": "", "city": "Vernon Hills", "zip_code": "60061", "country": "US", "state": "IL", "display_address": ["276 Hawthorne Village Commons", "Vernon Hills, IL 60061"]}, "phone": "+18473671980", "display_phone": "(847) 367-1980", "distance": 4927.377725508489}, {"id": "JPRF7IEwJJ6JlOiKduOD8A", "alias": "beelows-steakhouse-lake-zurich", "name": "Beelow's Steakhouse", "image_url": "https://s3-media3.fl.yelpcdn.com/bphoto/VFMMnUSIz0gaF86E1TfPZw/o.jpg", "is_closed": false, "url": "https://www.yelp.com/biz/beelows-steakhouse-lake-zurich?adjust_creative=C0qWl-nkrhgvVn4vMXVoWw&utm_campaign=yelp_api_v3&utm_medium=api_v3_business_search&utm_source=C0qWl-nkrhgvVn4vMXVoWw", "review_count": 794, "categories": [{"alias": "steak", "title": "Steakhouses"}, {"alias": "burgers", "title": "Burgers"}, {"alias": "tradamerican", "title": "American (Traditional)"}], "rating": 4.0, "coordinates": {"latitude": 42.18468, "longitude": -88.09412}, "transactions": ["delivery", "pickup"], "price": "$$$", "location": {"address1": "763 S Rand Rd", "address2": "", "address3": "", "city": "Lake Zurich", "zip_code": "60047", "country": "US", "state": "IL", "display_address": ["763 S Rand Rd", "Lake Zurich, IL 60047"]}, "phone": "+18475400600", "display_phone": "(847) 540-0600", "distance": 10819.550072427892}, {"id": "twwb36Am04-ntkTdaBumlQ", "alias": "whole-foods-market-vernon-hills", "name": "Whole Foods Market", "image_url": "https://s3-media1.fl.yelpcdn.com/bphoto/iZjyN5IAujgkoNoyhAVi3Q/o.jpg", "is_closed": false, "url": "https://www.yelp.com/biz/whole-foods-market-vernon-hills?adjust_creative=C0qWl-nkrhgvVn4vMXVoWw&utm_campaign=yelp_api_v3&utm_medium=api_v3_business_search&utm_source=C0qWl-nkrhgvVn4vMXVoWw", "review_count": 60, "categories": [{"alias": "grocery", "title": "Grocery"}, {"alias": "healthmarkets", "title": "Health Markets"}, {"alias": "organic_stores", "title": "Organic Stores"}], "rating": 3.0, "coordinates": {"latitude": 42.241203, "longitude": -87.943845}, "transactions": [], "location": {"address1": "851 N Milwaukee Ave", "address2": null, "address3": null, "city": "Vernon Hills", "zip_code": "60061", "country": "US", "state": "IL", "display_address": ["851 N Milwaukee Ave", "Vernon Hills, IL 60061"]}, "phone": "+12245043990", "display_phone": "(224) 504-3990", "distance": 5993.2051079565035}, {"id": "jDadibA8ZOEYiN_3M10iwQ", "alias": "yan-yan-chinese-buffalo-grove", "name": "Yan Yan Chinese", "image_url": "https://s3-media4.fl.yelpcdn.com/bphoto/vYsf1TZjsFcEWH93iBoR1Q/o.jpg", "is_closed": false, "url": "https://www.yelp.com/biz/yan-yan-chinese-buffalo-grove?adjust_creative=C0qWl-nkrhgvVn4vMXVoWw&utm_campaign=yelp_api_v3&utm_medium=api_v3_business_search&utm_source=C0qWl-nkrhgvVn4vMXVoWw", "review_count": 147, "categories": [{"alias": "chinese", "title": "Chinese"}, {"alias": "sushi", "title": "Sushi Bars"}, {"alias": "japanese", "title": "Japanese"}], "rating": 3.0, "coordinates": {"latitude": 42.1967582, "longitude": -87.9664973}, "transactions": ["delivery", "pickup"], "price": "$$", "location": {"address1": "360 W Half Day Rd", "address2": "", "address3": "", "city": "Buffalo Grove", "zip_code": "60089", "country": "US", "state": "IL", "display_address": ["360 W Half Day Rd", "Buffalo Grove, IL 60089"]}, "phone": "+18478838888", "display_phone": "(847) 883-8888", "distance": 7922.176457027231}, {"id": "ojG1y77Fgd_sQW3zZaey5g", "alias": "jewel-osco-libertyville", "name": "Jewel-Osco", "image_url": "https://s3-media3.fl.yelpcdn.com/bphoto/-LnyQ9h6Q56dI4hhJKLizw/o.jpg", "is_closed": false, "url": "https://www.yelp.com/biz/jewel-osco-libertyville?adjust_creative=C0qWl-nkrhgvVn4vMXVoWw&utm_campaign=yelp_api_v3&utm_medium=api_v3_business_search&utm_source=C0qWl-nkrhgvVn4vMXVoWw", "review_count": 40, "categories": [{"alias": "grocery", "title": "Grocery"}], "rating": 2.5, "coordinates": {"latitude": 42.26261336844894, "longitude": -87.94773760927976}, "transactions": [], "price": "$$", "location": {"address1": "1300 S Milwaukee Ave", "address2": "", "address3": "", "city": "Libertyville", "zip_code": "60048", "country": "US", "state": "IL", "display_address": ["1300 S Milwaukee Ave", "Libertyville, IL 60048"]}, "phone": "+18478168200", "display_phone": "(847) 816-8200", "distance": 5278.470210741116}, {"id": "EtuxDjQJHzSGWhTaR6COJA", "alias": "marianos-vernon-hills-vernon-hills", "name": "Mariano's - Vernon Hills", "image_url": "https://s3-media3.fl.yelpcdn.com/bphoto/-1gW8p0R1caneico3_2jkA/o.jpg", "is_closed": false, "url": "https://www.yelp.com/biz/marianos-vernon-hills-vernon-hills?adjust_creative=C0qWl-nkrhgvVn4vMXVoWw&utm_campaign=yelp_api_v3&utm_medium=api_v3_business_search&utm_source=C0qWl-nkrhgvVn4vMXVoWw", "review_count": 212, "categories": [{"alias": "grocery", "title": "Grocery"}], "rating": 3.5, "coordinates": {"latitude": 42.25694, "longitude": -87.95094}, "transactions": [], "price": "$$", "location": {"address1": "1720 N. Milwaukee Ave.", "address2": "", "address3": "", "city": "Vernon Hills", "zip_code": "60061", "country": "US", "state": "IL", "display_address": ["1720 N. Milwaukee Ave.", "Vernon Hills, IL 60061"]}, "phone": "+18478160994", "display_phone": "(847) 816-0994", "distance": 5038.055735238595}, {"id": "x4pE0uiyYvriWqkFPGimUg", "alias": "marianos-fresh-market-lake-zurich", "name": "Mariano's Fresh Market", "image_url": "https://s3-media2.fl.yelpcdn.com/bphoto/q8cZGhpXCFCuLwFAU_NQ0Q/o.jpg", "is_closed": false, "url": "https://www.yelp.com/biz/marianos-fresh-market-lake-zurich?adjust_creative=C0qWl-nkrhgvVn4vMXVoWw&utm_campaign=yelp_api_v3&utm_medium=api_v3_business_search&utm_source=C0qWl-nkrhgvVn4vMXVoWw", "review_count": 119, "categories": [{"alias": "beer_and_wine", "title": "Beer, Wine & Spirits"}, {"alias": "bakeries", "title": "Bakeries"}, {"alias": "grocery", "title": "Grocery"}], "rating": 3.0, "coordinates": {"latitude": 42.19853570927296, "longitude": -88.06046101165661}, "transactions": [], "price": "$$", "location": {"address1": "1350 E Rte 22", "address2": "", "address3": "", "city": "Lake Zurich", "zip_code": "60047", "country": "US", "state": "IL", "display_address": ["1350 E Rte 22", "Lake Zurich, IL 60047"]}, "phone": "+18474384003", "display_phone": "(847) 438-4003", "distance": 7972.39101177673}, {"id": "e82hVwAnr3JUGAg8a6iz5w", "alias": "marianos-fresh-market-buffalo-grove", "name": "Mariano's Fresh Market", "image_url": "https://s3-media3.fl.yelpcdn.com/bphoto/j4FqgbmipyChAb6wKrgtOg/o.jpg", "is_closed": false, "url": "https://www.yelp.com/biz/marianos-fresh-market-buffalo-grove?adjust_creative=C0qWl-nkrhgvVn4vMXVoWw&utm_campaign=yelp_api_v3&utm_medium=api_v3_business_search&utm_source=C0qWl-nkrhgvVn4vMXVoWw", "review_count": 72, "categories": [{"alias": "grocery", "title": "Grocery"}, {"alias": "drugstores", "title": "Drugstores"}], "rating": 3.0, "coordinates": {"latitude": 42.1982541359306, "longitude": -87.9679563867289}, "transactions": [], "price": "$$", "location": {"address1": "450 W Half Day Rd", "address2": "", "address3": "", "city": "Buffalo Grove", "zip_code": "60089", "country": "US", "state": "IL", "display_address": ["450 W Half Day Rd", "Buffalo Grove, IL 60089"]}, "phone": "+18476348500", "display_phone": "(847) 634-8500", "distance": 7809.816690373276}]